,City,Lat,Lng,Max Temp,Humidity,Cloudiness,Wind Speed,Country,Date
0,bredasdorp,-34.53,20.04,288.15,58,100,4.6,ZA,1603143847
1,korla,41.76,86.15,280.37,79,0,0.45,CN,1603143847
2,atuona,-9.8,-139.03,298.96,76,0,7.78,PF,1603143847
3,brigham city,41.51,-112.02,291.4,25,1,4.67,US,1603143848
4,arraial do cabo,-22.97,-42.03,296.15,78,40,9.8,BR,1603143848
5,betioky,-23.72,44.38,291.81,64,0,0.75,MG,1603143848
6,butaritari,3.07,172.79,300.98,76,76,4.98,KI,1603143848
7,provideniya,64.38,-173.3,272.15,80,40,1.0,RU,1603143848
8,launceston,-41.45,147.17,284.9,87,40,3.1,AU,1603143813
9,haines junction,60.75,-137.51,272.41,73,100,0.53,CA,1603143849
10,perth,-31.93,115.83,288.44,87,0,3.1,AU,1603143615
11,puerto ayora,-0.74,-90.35,295.72,69,75,2.6,EC,1603143849
12,kutum,14.2,24.67,298.1,18,20,5.35,SD,1603143850
13,busselton,-33.65,115.33,283.96,74,1,4.28,AU,1603143850
14,broken hill,-31.95,141.43,288.15,47,50,3.1,AU,1603143850
15,carnarvon,-24.87,113.63,293.15,72,90,4.6,AU,1603143850
16,zhangjiakou,40.81,114.88,280.75,50,85,0.94,CN,1603143850
17,skegness,53.14,0.34,283.71,81,100,7.15,GB,1603143851
18,craig,40.52,-107.55,289.77,23,1,6.7,US,1603143851
19,marsa matruh,31.35,27.25,298.15,69,73,2.41,EG,1603143851
20,tuktoyaktuk,69.45,-133.04,268.4,98,93,2.22,CA,1603143852
21,punta arenas,-53.15,-70.92,278.93,72,20,15.4,CL,1603143727
22,puerto del rosario,28.5,-13.86,295.15,83,20,1.47,ES,1603143852
23,albany,42.6,-73.97,287.04,74,100,1.84,US,1603143852
24,dikson,73.51,80.55,268.64,95,98,7.84,RU,1603143852
25,chuy,-33.7,-53.46,293.79,74,0,2.8,UY,1603143853
26,hilo,19.73,-155.09,299.67,58,20,5.1,US,1603143780
27,ushuaia,-54.8,-68.3,277.15,80,75,15.9,AR,1603143661
28,saint george,37.1,-113.58,302.34,12,1,1.5,US,1603143836
29,nyandoma,61.67,40.2,270.73,99,54,2.36,RU,1603143853
30,adrar,20.5,-10.07,303.09,17,0,4.19,MR,1603143854
31,vostok,46.49,135.88,270.96,97,0,1.26,RU,1603143854
32,east london,-33.02,27.91,291.79,84,10,1.96,ZA,1603143854
33,los llanos de aridane,28.66,-17.92,295.88,61,89,1.5,ES,1603143854
34,port moresby,-9.44,147.18,299.57,82,99,2.05,PG,1603143854
35,guerrero negro,27.98,-114.06,302.67,40,0,6.45,MX,1603143854
36,hermanus,-34.42,19.23,287.04,81,100,4.02,ZA,1603143855
37,vaini,-21.2,-175.2,297.15,73,75,5.1,TO,1603143855
38,nikolskoye,59.7,30.79,275.24,95,90,3.0,RU,1603143855
39,castro,-24.79,-50.01,291.42,84,11,2.75,BR,1603143855
40,yellowknife,62.46,-114.35,270.93,74,87,2.68,CA,1603143833
41,khatanga,71.97,102.5,260.0,96,22,0.47,RU,1603143856
42,alyangula,-13.85,136.42,295.15,100,69,5.0,AU,1603143856
43,severo-kurilsk,50.68,156.12,278.07,68,69,4.14,RU,1603143856
44,kapaa,22.08,-159.32,302.33,78,75,7.7,US,1603143856
45,jacareacanga,-6.22,-57.75,302.31,58,100,0.74,BR,1603143856
46,rikitea,-23.12,-134.97,296.64,78,0,5.59,PF,1603143857
47,turayf,31.67,38.66,294.15,21,0,4.1,SA,1603143857
48,yulara,-25.24,130.99,292.15,88,36,4.1,AU,1603143853
49,providencia,28.72,-111.58,310.66,17,0,1.79,MX,1603143857
50,codrington,-38.27,141.97,283.28,82,9,1.59,AU,1603143857
51,cherskiy,68.75,161.3,265.35,94,12,1.48,RU,1603143858
52,broome,42.25,-75.83,285.61,93,90,3.1,US,1603143858
53,sawtell,-30.38,153.1,291.09,77,40,4.6,AU,1603143858
54,lompoc,34.64,-120.46,292.4,72,1,5.1,US,1603143858
55,kruisfontein,-34.0,24.73,288.71,81,100,6.16,ZA,1603143858
56,praia,14.92,-23.51,301.15,69,93,5.1,CV,1603143858
57,pisco,-13.7,-76.22,294.2,64,1,8.2,PE,1603143859
58,sisimiut,66.94,-53.67,276.06,79,100,6.65,GL,1603143859
59,isangel,-19.55,169.27,298.15,88,75,4.1,VU,1603143859
60,jamestown,42.1,-79.24,283.88,93,90,2.6,US,1603143621
61,mar del plata,-38.0,-57.56,287.37,41,93,6.7,AR,1603143780
62,ponta do sol,32.67,-17.1,292.9,73,20,6.7,PT,1603143860
63,cidreira,-30.18,-50.21,293.15,90,0,6.43,BR,1603143860
64,vila velha,-20.33,-40.29,296.15,88,75,2.1,BR,1603143685
65,saint-philippe,-21.36,55.77,292.64,68,20,1.5,RE,1603143860
66,katherine,-14.47,132.27,300.15,74,26,2.6,AU,1603143861
67,hobart,-42.88,147.33,282.13,81,75,3.6,AU,1603143861
68,tasiilaq,65.61,-37.64,273.15,92,47,7.2,GL,1603143861
69,visnes,59.36,5.22,280.42,100,100,8.2,NO,1603143861
70,piacabucu,-10.41,-36.43,297.54,80,19,5.53,BR,1603143861
71,cape town,-33.93,18.42,287.78,87,75,4.1,ZA,1603143581
72,mataura,-46.19,168.86,282.59,79,68,4.02,NZ,1603143862
73,norman wells,65.28,-126.83,267.15,81,7,4.28,CA,1603143862
74,sao joao da barra,-21.64,-41.05,296.15,73,100,6.2,BR,1603143862
75,gaya,24.78,85.0,296.15,94,59,1.69,IN,1603143850
76,tuatapere,-46.13,167.68,282.59,79,50,4.02,NZ,1603143863
77,leirvik,59.78,5.5,279.01,95,100,2.24,NO,1603143863
78,asau,46.43,26.4,276.93,93,0,1.0,RO,1603143863
79,aklavik,68.22,-135.01,268.15,85,90,3.6,CA,1603143863
80,kodiak,57.79,-152.41,281.15,65,90,2.1,US,1603143864
81,katsuura,35.13,140.3,287.09,76,100,8.7,JP,1603143864
82,hovd,48.01,91.64,269.41,81,58,0.65,MN,1603143864
83,thompson,55.74,-97.86,271.89,90,99,3.48,CA,1603143864
84,lebu,-37.62,-73.65,285.01,67,0,5.67,CL,1603143864
85,bonavista,48.65,-53.11,282.59,81,90,0.89,CA,1603143865
86,lufilufi,-13.87,-171.6,301.04,94,75,3.6,WS,1603143865
87,coquimbo,-29.95,-71.34,288.15,77,75,5.1,CL,1603143796
88,porto nacional,-10.71,-48.42,303.15,70,40,4.1,BR,1603143865
89,coari,-4.08,-63.14,301.11,71,71,0.63,BR,1603143866
90,bambous virieux,-20.34,57.76,295.51,73,20,4.1,MU,1603143866
91,sovetskaya gavan,48.97,140.29,272.84,83,0,2.79,RU,1603143866
92,azangaro,-14.92,-70.22,284.57,51,86,2.49,PE,1603143866
93,necochea,-38.55,-58.74,285.93,56,17,5.36,AR,1603143600
94,georgetown,5.41,100.34,299.98,88,20,1.0,MY,1603143867
95,souillac,-20.52,57.52,296.15,73,20,4.1,MU,1603143867
96,buraydah,26.33,43.98,291.15,36,0,2.1,SA,1603143867
97,bluff,-46.6,168.33,282.59,79,91,4.02,NZ,1603143867
98,washington,47.5,-120.5,290.61,36,20,3.6,US,1603143537
99,bilma,18.69,12.92,301.24,15,0,2.82,NE,1603143868
100,barrow,71.29,-156.79,267.15,85,90,4.1,US,1603143601
101,muros,42.78,-9.06,289.56,90,89,4.92,ES,1603143868
102,hobyo,5.35,48.53,299.92,77,4,7.27,SO,1603143868
103,norsup,-16.07,167.38,300.15,78,75,1.0,VU,1603143868
104,altay,47.87,88.12,272.95,75,85,0.62,CN,1603143869
105,boyolangu,-8.12,111.89,296.6,88,62,0.24,ID,1603143869
106,nemuro,43.32,145.57,284.91,70,11,7.06,JP,1603143620
107,verkhoyansk,67.54,133.38,261.21,90,100,1.52,RU,1603143870
108,mulatupo,8.95,-77.77,299.46,85,100,3.87,PA,1603143870
109,bubaque,11.28,-15.83,301.24,88,3,3.87,GW,1603143870
110,limbang,4.75,115.0,298.15,88,75,1.0,MY,1603143871
111,ketchikan,55.34,-131.65,279.98,100,90,3.1,US,1603143871
112,marquette,46.53,-87.63,275.92,46,100,1.34,US,1603143871
113,lorengau,-2.02,147.27,301.52,70,49,0.75,PG,1603143871
114,natal,-5.79,-35.21,299.15,78,40,4.1,BR,1603143871
115,hithadhoo,-0.6,73.08,301.27,77,100,5.44,MV,1603143872
116,narsaq,60.92,-46.05,274.15,81,94,1.31,GL,1603143872
117,bethel,41.37,-73.41,288.69,72,90,1.5,US,1603143872
118,mount gambier,-37.83,140.77,280.15,93,90,0.5,AU,1603143872
119,husavik,66.04,-17.34,274.15,86,75,0.89,IS,1603143873
120,ribeira grande,38.52,-28.7,291.02,70,59,14.69,PT,1603143873
121,bocas del toro,9.33,-82.25,293.15,83,100,4.03,PA,1603143873
122,flinders,-34.58,150.86,289.91,78,77,0.45,AU,1603143703
123,upernavik,72.79,-56.15,274.98,80,11,7.41,GL,1603143874
124,vila franca do campo,37.72,-25.43,287.15,87,40,4.6,PT,1603143874
125,acapulco,16.86,-99.89,304.15,70,40,3.6,MX,1603143874
126,torbay,47.67,-52.73,283.72,83,67,0.45,CA,1603143874
127,qaanaaq,77.48,-69.36,272.09,86,43,3.99,GL,1603143875
128,kara-tyube,44.63,45.44,289.05,84,84,6.3,RU,1603143875
129,port alfred,-33.59,26.89,291.33,83,56,8.89,ZA,1603143875
130,umm lajj,25.02,37.27,301.26,40,0,2.01,SA,1603143875
131,zhoucheng,35.91,116.31,287.04,1,100,2.55,CN,1603143876
132,ha tinh,18.33,105.9,291.41,94,100,6.21,VN,1603143876
133,yarada,17.65,83.27,299.15,100,75,1.0,IN,1603143876
134,puerto colombia,10.99,-74.95,304.15,70,75,3.1,CO,1603143615
135,port blair,11.67,92.75,300.35,83,38,5.93,IN,1603143877
136,kibala,9.11,18.35,299.15,88,46,0.93,TD,1603143877
137,kahului,20.89,-156.47,303.89,49,40,5.7,US,1603143747
138,iqaluit,63.75,-68.51,272.04,80,85,1.79,CA,1603143877
139,chokurdakh,70.63,147.92,264.02,97,93,3.06,RU,1603143878
140,lata,40.16,-8.33,290.76,93,100,0.45,PT,1603143878
141,verkhovazhye,60.75,42.05,272.68,98,96,2.41,RU,1603143878
142,urubamba,-13.3,-72.12,291.15,36,75,3.6,PE,1603143878
143,cabra,37.47,-4.44,295.37,32,87,3.56,ES,1603143878
144,vryburg,-26.96,24.73,291.49,26,0,0.66,ZA,1603143878
145,coolum beach,-26.53,153.1,294.0,74,90,0.89,AU,1603143879
146,comodoro rivadavia,-45.87,-67.5,288.15,26,20,7.2,AR,1603143879
147,pangnirtung,66.15,-65.71,274.15,74,90,3.1,CA,1603143879
148,dunda,-8.12,34.25,294.21,58,54,2.09,TZ,1603143879
149,ancud,-41.87,-73.82,284.15,43,0,4.1,CL,1603143880
150,quang ngai,15.12,108.8,297.73,90,100,1.66,VN,1603143683
151,petropavl,54.88,69.16,281.81,70,100,3.52,KZ,1603143880
152,puerto el triunfo,13.28,-88.55,304.63,66,20,2.6,SV,1603143880
153,boca do acre,-8.75,-67.4,299.26,75,98,0.84,BR,1603143880
154,touros,-5.2,-35.46,299.15,78,40,4.1,BR,1603143881
155,clyde river,70.47,-68.59,274.15,97,90,7.7,CA,1603143590
156,cairns,-16.92,145.77,295.54,88,32,0.5,AU,1603143737
157,zyryanovsk,49.74,84.27,272.16,87,77,0.51,KZ,1603143881
158,kaitangata,-46.28,169.85,284.49,51,77,6.02,NZ,1603143881
159,vuktyl,63.86,57.31,271.29,99,100,2.23,RU,1603143882
160,marawi,8.0,124.29,297.04,93,61,2.24,PH,1603143882
161,soloneshnoye,51.65,84.32,274.93,73,97,2.07,RU,1603143882
162,tiksi,71.69,128.87,263.45,93,100,10.26,RU,1603143882
163,saldanha,-33.01,17.94,287.15,71,100,1.5,ZA,1603143883
164,sorong,-0.88,131.25,299.12,82,100,3.41,ID,1603143883
165,nuuk,64.18,-51.72,280.15,72,100,21.1,GL,1603143699
166,hualmay,-11.1,-77.61,291.95,75,30,4.53,PE,1603143883
167,kloulklubed,7.04,134.26,298.15,94,75,3.8,PW,1603143883
168,mundo nuevo,18.7,-95.5,301.19,73,1,4.65,MX,1603143884
169,manjacaze,-24.71,33.88,294.91,55,0,5.03,MZ,1603143884
170,hamilton,39.18,-84.53,286.01,93,90,2.6,US,1603143603
171,saint-pierre,-21.34,55.48,292.69,68,20,1.5,RE,1603143884
172,coffs harbour,-30.3,153.13,291.16,77,40,4.6,AU,1603143884
173,kavieng,-2.57,150.8,301.69,69,70,0.87,PG,1603143885
174,smolenka,52.14,113.5,274.15,74,98,4.0,RU,1603143885
175,limon,10.0,-83.03,303.15,74,100,5.1,CR,1603143885
176,harper,4.38,-7.72,298.33,84,62,3.11,LR,1603143885
177,new norfolk,-42.78,147.06,282.48,78,56,1.79,AU,1603143885
178,sydney mines,46.24,-60.22,286.39,100,90,4.1,CA,1603143886
179,petatlan,17.52,-101.27,306.15,59,75,5.1,MX,1603143886
180,luderitz,-26.65,15.16,288.2,72,0,10.62,NA,1603143886
181,marsabit,2.33,37.99,296.46,48,28,6.18,KE,1603143886
182,praya,14.92,-23.51,301.15,69,93,5.1,CV,1603143858
183,cockburn town,21.46,-71.14,302.15,62,40,4.1,TC,1603143887
184,douglas,41.3,-96.17,280.29,55,90,2.6,US,1603143887
185,abu samrah,35.3,37.18,292.06,53,32,2.62,SY,1603143887
186,urumqi,43.8,87.6,280.15,52,5,1.0,CN,1603143608
187,ulladulla,-35.35,150.47,287.59,77,75,3.6,AU,1603143887
188,novaya igirma,57.13,103.91,269.51,94,99,4.32,RU,1603143888
189,tshikapa,-6.42,20.8,295.4,91,87,1.04,CD,1603143888
190,wenling,28.37,121.36,288.71,94,92,5.78,CN,1603143888
191,hervey bay,-25.3,152.85,295.15,73,75,5.7,AU,1603143647
192,cullman,34.17,-86.84,298.68,57,75,2.1,US,1603143889
193,sambava,-14.27,50.17,296.87,74,84,5.73,MG,1603143889
194,namatanai,-3.67,152.43,301.58,71,7,1.28,PG,1603143889
195,karlstad,59.38,13.5,273.15,67,100,0.5,SE,1603143889
196,geraldton,-28.77,114.6,292.15,72,90,4.6,AU,1603143889
197,alofi,-19.06,-169.92,299.15,69,75,6.7,NU,1603143890
198,cayenne,4.93,-52.33,302.15,74,41,3.1,GF,1603143890
199,fukue,32.69,128.84,293.09,61,0,7.63,JP,1603143890
200,pierre,44.37,-100.35,278.18,56,40,5.7,US,1603143753
201,auki,-8.77,160.7,302.05,71,9,1.27,SB,1603143890
202,kumano,34.34,132.59,285.88,66,20,4.1,JP,1603143891
203,balakhninskiy,58.01,114.28,268.34,95,100,1.75,RU,1603143891
204,alugan,12.22,125.48,298.31,88,100,2.81,PH,1603143891
205,puerto escondido,15.85,-97.07,303.15,66,40,2.6,MX,1603143891
206,vestmannaeyjar,63.44,-20.27,278.14,76,100,3.05,IS,1603143891
207,chapais,49.78,-74.85,274.15,80,90,3.1,CA,1603143892
208,wattegama,6.8,81.48,296.95,79,78,2.22,LK,1603143892
209,chocope,-7.79,-79.22,293.41,67,50,4.45,PE,1603143892
210,yar-sale,66.83,70.83,264.99,96,0,1.22,RU,1603143892
211,dingle,11.0,122.67,298.16,88,100,1.31,PH,1603143892
212,mozarlandia,-14.74,-50.57,297.47,78,91,4.56,BR,1603143893
213,christchurch,-43.53,172.63,287.67,67,41,5.7,NZ,1603143893
214,yaan,7.38,8.57,297.07,93,45,2.03,NG,1603143893
215,ukiah,39.15,-123.21,304.89,17,1,3.14,US,1603143893
216,oistins,13.07,-59.53,302.15,74,20,3.6,BB,1603143893
217,pochutla,15.74,-96.47,304.76,66,20,3.1,MX,1603143894
218,shirokiy,49.76,129.52,272.26,92,0,3.88,RU,1603143894
219,college,64.86,-147.8,266.1,85,90,1.5,US,1603143894
220,bengkulu,-3.8,102.27,297.74,84,100,2.07,ID,1603143894
221,najran,17.49,44.13,292.15,22,0,1.0,SA,1603143894
222,leh,34.17,77.58,274.84,53,0,3.47,IN,1603143895
223,port lincoln,-34.73,135.87,287.23,83,100,5.77,AU,1603143895
224,saint-francois,46.42,3.91,286.15,71,80,4.1,FR,1603143895
225,saint-joseph,-21.37,55.62,293.93,68,20,1.5,RE,1603143895
226,siatista,40.26,21.54,285.93,57,22,0.23,GR,1603143895
227,praia da vitoria,38.73,-27.07,289.3,72,40,14.35,PT,1603143896
228,mitzic,0.78,11.55,294.26,98,100,1.4,GA,1603143896
229,seguela,7.96,-6.67,295.43,94,13,0.39,CI,1603143896
230,victoria,22.29,114.16,293.61,74,14,2.68,HK,1603143874
231,kijang,35.24,129.21,284.15,81,0,2.1,KR,1603143896
232,myrtle beach,33.69,-78.89,297.73,69,1,3.1,US,1603143896
233,klaksvik,62.23,-6.59,277.15,86,17,2.6,FO,1603143897
234,boende,-0.22,20.87,295.55,96,100,0.78,CD,1603143897
235,port hardy,50.7,-127.42,284.42,80,97,6.06,CA,1603143897
236,horana,6.72,80.06,300.15,88,40,3.1,LK,1603143897
237,mahebourg,-20.41,57.7,296.15,73,20,4.1,MU,1603143897
238,constitucion,-35.33,-72.42,287.5,62,3,7.69,CL,1603143898
239,maceio,-9.67,-35.74,297.15,83,39,4.6,BR,1603143893
240,megion,61.03,76.11,273.15,99,90,2.0,RU,1603143898
241,palmer,42.16,-72.33,288.38,59,75,2.1,US,1603143899
242,elk city,35.41,-99.4,287.77,47,1,2.1,US,1603143899
243,rwamagana,-1.95,30.43,289.98,100,75,2.1,RW,1603143899
244,vatutine,49.02,31.06,278.87,86,7,3.02,UA,1603143899
245,fonte boa,-2.5,-66.27,299.86,84,95,1.64,BR,1603143900
246,san jeronimo,-11.95,-75.28,290.09,39,9,4.09,PE,1603143900
247,san felipe,10.34,-68.74,299.24,79,24,0.98,VE,1603143900
248,qasigiannguit,68.82,-51.19,278.15,56,100,7.2,GL,1603143900
249,labuan,5.28,115.24,296.15,100,20,2.53,MY,1603143794
250,ilulissat,69.22,-51.1,278.15,56,100,7.2,GL,1603143901
251,port elizabeth,-33.92,25.57,289.15,87,98,7.2,ZA,1603143901
252,lyskovo,56.03,45.04,275.38,92,26,2.98,RU,1603143901
253,hami,42.8,93.45,280.13,53,4,2.19,CN,1603143901
254,sitka,57.05,-135.33,280.15,75,75,1.5,US,1603143902
255,novikovo,51.15,37.89,277.32,73,9,3.53,RU,1603143902
256,mezen,65.85,44.24,270.81,98,100,4.03,RU,1603143902
257,atkarsk,51.87,45.01,278.98,74,100,3.23,RU,1603143903
258,mecca,21.43,39.83,299.19,18,0,2.83,SA,1603143868
259,oksfjord,70.24,22.35,271.65,92,95,2.6,NO,1603143904
260,xining,36.62,101.77,274.2,79,21,0.16,CN,1603143904
261,morgan city,29.7,-91.21,301.32,62,20,1.5,US,1603143904
262,korgen,66.08,13.82,270.26,92,75,0.5,NO,1603143905
263,copiapo,-27.37,-70.33,288.15,72,40,7.2,CL,1603143905
264,yantal,56.85,105.25,269.17,93,99,4.49,RU,1603143905
265,greenville,35.61,-77.37,296.7,64,1,2.6,US,1603143638
266,kissidougou,9.18,-10.1,295.03,89,100,0.92,GN,1603143905
267,itoman,26.12,127.67,298.23,78,20,5.1,JP,1603143906
268,nizwa,22.93,57.53,294.6,24,15,0.99,OM,1603143906
269,nabire,-3.37,135.48,298.62,81,100,1.06,ID,1603143906
270,lagoa,39.05,-27.98,290.87,70,37,15.09,PT,1603143906
271,zheleznodorozhnyy,55.75,38.0,275.55,74,40,5.0,RU,1603143907
272,faya,18.39,42.45,288.65,19,0,3.1,SA,1603143907
273,yuci,37.68,112.73,276.15,86,64,1.0,CN,1603143907
274,kailua,21.4,-157.74,299.71,83,75,1.5,US,1603143722
275,baykit,61.67,96.37,268.54,92,100,4.48,RU,1603143907
276,puerto carreno,6.19,-67.49,301.87,78,84,1.44,CO,1603143908
277,kashi,39.45,75.98,284.15,32,0,5.0,CN,1603143908
278,airai,-8.93,125.41,290.07,57,5,0.99,TL,1603143909
279,gallup,35.53,-108.74,298.49,9,1,5.1,US,1603143749
280,waipawa,-41.41,175.52,288.23,77,23,8.2,NZ,1603143909
281,shimoda,34.67,138.95,289.33,72,100,5.29,JP,1603143909
282,manono,-7.3,27.42,294.9,84,67,0.49,CD,1603143909
283,barra patuca,15.8,-84.28,301.26,78,98,6.14,HN,1603143910
284,nhulunbuy,-12.23,136.77,296.15,83,10,2.03,AU,1603143910
285,bilibino,68.05,166.44,262.47,92,27,1.4,RU,1603143910
286,tazovskiy,67.47,78.7,264.67,97,25,3.16,RU,1603143910
287,nivala,63.92,24.97,270.93,92,100,1.79,FI,1603143910
288,amahai,-3.33,128.92,300.37,93,87,1.42,ID,1603143911
289,ballina,-28.87,153.57,292.8,77,90,4.6,AU,1603143911
290,inuvik,68.35,-133.72,268.15,85,90,3.6,CA,1603143666
291,matamoros,25.53,-103.25,306.15,16,5,4.6,MX,1603143846
292,sharkan,57.3,53.87,274.82,88,100,2.61,RU,1603143911
293,nanortalik,60.14,-45.24,275.79,89,97,1.07,GL,1603143912
294,san patricio,28.02,-97.52,304.37,59,40,8.2,US,1603143912
295,santa isabel do rio negro,-0.41,-65.02,299.24,83,93,1.16,BR,1603143912
296,erenhot,43.65,111.98,282.45,44,98,9.81,CN,1603143913
297,bongandanga,1.5,21.05,294.99,99,98,1.01,CD,1603143913
298,san rafael,-34.62,-68.33,296.13,20,0,5.36,AR,1603143913
299,wajima,37.4,136.9,290.47,56,5,2.45,JP,1603143913
300,komsomolskiy,40.43,71.72,283.15,39,0,3.1,UZ,1603143913
301,ranong,9.97,98.63,298.33,82,53,1.04,TH,1603143914
302,alexandria,31.22,29.96,299.15,65,97,5.1,EG,1603143766
303,colac,-38.33,143.58,281.31,89,1,0.48,AU,1603143914
304,tocopilla,-22.09,-70.2,291.7,56,17,4.03,CL,1603143914
305,bud,39.45,-86.18,283.17,100,90,2.6,US,1603143915
306,denpasar,-8.65,115.22,299.15,94,40,2.6,ID,1603143915
307,bandipur,27.93,84.42,288.86,96,0,1.22,NP,1603143915
308,faanui,-16.48,-151.75,299.31,81,1,8.24,PF,1603143915
309,olafsvik,64.89,-23.71,277.18,73,86,4.27,IS,1603143915
310,ossora,59.24,163.07,276.52,83,100,0.82,RU,1603143916
311,zharkent,44.16,80.0,284.58,38,0,2.49,KZ,1603143916
312,sao filipe,14.9,-24.5,301.49,65,36,2.72,CV,1603143917
313,baley,51.6,116.63,272.35,95,93,1.01,RU,1603143917
314,tateyama,34.98,139.87,287.09,76,100,8.7,JP,1603143917
315,nianzishan,47.52,122.88,276.95,73,63,1.23,CN,1603143918
316,matagami,49.75,-77.63,274.75,86,97,2.2,CA,1603143918
317,maningrida,-12.07,134.27,299.03,71,45,1.71,AU,1603143918
318,vao,-22.67,167.48,296.24,77,94,7.38,NC,1603143919
319,sarakhs,36.54,61.16,284.15,37,0,1.0,IR,1603143919
320,kapit,2.02,112.93,296.02,93,94,0.42,MY,1603143919
321,turukhansk,65.82,87.98,261.52,97,100,1.75,RU,1603143919
322,ust-maya,60.42,134.53,262.06,95,16,1.2,RU,1603143920
323,vadlapudi,14.32,79.8,300.91,74,98,0.77,IN,1603143920
324,avarua,-21.21,-159.78,300.15,78,6,3.1,CK,1603143920
325,mortka,59.33,66.02,274.82,95,17,3.29,RU,1603143920
326,opuwo,-18.06,13.84,293.85,29,0,2.56,NA,1603143921
327,tabira,-7.59,-37.54,299.9,43,22,6.75,BR,1603143921
328,te anau,-45.42,167.72,283.87,55,18,2.19,NZ,1603143921
329,baft,29.23,56.61,282.81,27,0,2.1,IR,1603143922
330,beringovskiy,63.05,179.32,276.65,80,88,4.6,RU,1603143922
331,grindavik,63.84,-22.43,274.15,86,56,4.1,IS,1603143922
332,cozumel,20.51,-86.95,302.38,74,40,4.6,MX,1603143757
333,brawley,32.98,-115.53,309.48,22,1,2.6,US,1603143923
334,los teques,10.34,-67.04,293.26,99,56,0.75,VE,1603143923
335,port keats,-14.25,129.55,301.45,81,82,3.59,AU,1603143657
336,celestun,20.87,-90.4,301.2,78,7,6.96,MX,1603143923
337,usinsk,65.99,57.53,267.92,96,91,2.94,RU,1603143924
338,troitskiy,57.06,63.75,277.84,90,90,1.72,RU,1603143924
339,ruteng,-8.61,120.47,290.68,100,93,0.89,ID,1603143924
340,ati,13.22,18.34,304.45,19,0,2.6,TD,1603143924
341,iralaya,15.0,-83.23,301.54,78,100,3.78,HN,1603143925
342,acarau,-2.89,-40.12,299.46,76,12,8.92,BR,1603143925
343,cap-aux-meules,47.38,-61.86,283.72,92,89,3.85,CA,1603143925
344,kamaishi,39.27,141.88,286.1,64,3,2.01,JP,1603143925
345,lac du bonnet,50.25,-96.06,275.12,98,91,1.79,CA,1603143925
346,monrovia,6.3,-10.8,298.15,94,75,3.23,LR,1603143926
347,saskylakh,71.92,114.08,267.04,97,89,2.0,RU,1603143926
348,susehri,40.16,38.09,284.37,78,27,0.8,TR,1603143926
349,elliot,-31.33,27.85,287.57,46,16,1.42,ZA,1603143926
350,halifax,44.65,-63.57,287.09,93,90,2.1,CA,1603143900
351,srednekolymsk,67.45,153.68,263.93,96,29,0.84,RU,1603143927
352,hasaki,35.73,140.83,283.15,100,75,2.6,JP,1603143761
353,alta floresta,-9.88,-56.09,295.84,94,97,0.73,BR,1603143927
354,valparaiso,-33.04,-71.63,290.68,48,8,4.6,CL,1603143927
355,sawakin,19.11,37.33,299.96,68,0,3.09,SD,1603143928
356,polis,35.04,32.43,292.35,77,20,2.6,CY,1603143928
357,khandyga,62.67,135.6,261.81,96,95,1.3,RU,1603143928
358,virginia beach,36.85,-75.98,293.86,73,90,4.1,US,1603143708
359,progreso,21.28,-89.67,303.21,66,75,4.1,MX,1603143929
360,atar,20.52,-13.05,304.26,22,0,3.85,MR,1603143929
361,fortuna,40.6,-124.16,289.6,87,40,6.2,US,1603143782
362,bogorodskoye,56.55,37.88,274.96,87,64,6.32,RU,1603143930
363,aripuana,-9.17,-60.63,301.26,61,96,0.09,BR,1603143930
364,honningsvag,70.98,25.97,278.05,75,100,5.49,NO,1603143930
365,aitape,-3.14,142.35,300.12,79,45,1.7,PG,1603143930
366,kollo,13.3,2.34,304.15,45,1,2.1,NE,1603143931
367,quatre cocos,-20.21,57.76,295.45,73,20,4.1,MU,1603143931
368,tecoanapa,16.52,-98.75,303.58,66,2,5.25,MX,1603143931
369,palizada,18.25,-92.08,303.15,70,40,3.6,MX,1603143931
370,san quintin,30.48,-115.95,298.0,58,0,9.57,MX,1603143931
371,karaikkudi,10.07,78.78,300.28,76,100,1.07,IN,1603143931
372,san cristobal,7.77,-72.22,304.15,45,40,2.1,VE,1603143932
373,marienburg,54.04,19.03,277.97,93,40,4.1,PL,1603143932
374,roald,62.58,6.13,275.12,63,8,3.6,NO,1603143932
375,fort abbas,29.19,72.85,297.78,19,0,2.79,PK,1603143933
376,zyryanka,65.75,150.85,263.31,96,79,2.8,RU,1603143933
377,conchas,-23.02,-48.01,296.12,68,65,3.63,BR,1603143933
378,opportunity,47.65,-117.24,288.23,54,98,2.24,US,1603143934
379,aliwal north,-30.69,26.71,292.11,25,12,2.98,ZA,1603143935
380,barentu,15.11,37.59,296.87,38,0,2.24,ER,1603143935
381,dodge city,37.75,-100.02,285.9,46,1,1.5,US,1603143881
382,batticaloa,7.71,81.69,298.6,80,31,1.88,LK,1603143935
383,egvekinot,66.32,-179.17,270.36,97,41,2.2,RU,1603143935
384,sobolevo,54.43,31.9,276.05,82,3,6.25,RU,1603143936
385,vidim,56.41,103.11,269.47,91,100,4.71,RU,1603143936
386,teya,60.38,92.63,269.65,94,98,3.49,RU,1603143936
387,kenai,60.55,-151.26,277.51,69,40,1.17,US,1603143937
388,longyearbyen,78.22,15.64,271.15,74,75,4.6,SJ,1603143937
389,gumdag,39.21,54.59,286.79,36,0,1.54,TM,1603143937
390,dubti,11.74,41.09,303.23,27,0,1.37,ET,1603143937
391,hornepayne,49.21,-84.77,273.26,94,32,1.76,CA,1603143937
392,san vicente,-26.62,-54.13,298.46,45,82,0.84,AR,1603143938
393,sistranda,63.73,8.83,274.15,72,20,2.6,NO,1603143938
394,lavrentiya,65.58,-171.0,274.9,76,8,1.97,RU,1603143938
395,bandarbeyla,9.49,50.81,298.53,76,0,1.11,SO,1603143938
396,pouebo,-20.4,164.57,298.09,61,4,3.06,NC,1603143939
397,bathsheba,13.22,-59.52,302.15,74,20,3.6,BB,1603143939
398,kargasok,59.06,80.86,273.8,97,100,4.47,RU,1603143940
399,potrerillos,15.23,-87.97,301.88,74,40,1.0,HN,1603143940
400,ostrovnoy,68.05,39.51,275.22,82,91,7.13,RU,1603143940
401,mazagao,-0.12,-51.29,304.15,66,20,6.2,BR,1603143735
402,flin flon,54.77,-101.86,272.18,86,98,2.62,CA,1603143901
403,kikwit,-5.04,18.82,295.48,93,89,0.66,CD,1603143941
404,solnechnyy,50.72,136.63,270.16,79,0,2.05,RU,1603143941
405,panaba,21.28,-88.27,300.23,85,13,5.19,MX,1603143941
406,fare,-16.7,-151.02,299.65,78,18,8.96,PF,1603143942
407,shenjiamen,29.96,122.3,291.63,76,20,6.15,CN,1603143942
408,cabo san lucas,22.89,-109.91,305.5,59,5,5.1,MX,1603143869
409,terenos,-20.44,-54.86,303.15,51,20,3.6,BR,1603143942
410,calama,-22.47,-68.93,297.15,6,0,10.3,CL,1603143943
411,grand-santi,4.25,-54.38,303.23,47,78,1.11,GF,1603143943
412,chaoyang,41.57,120.46,282.61,48,0,2.31,CN,1603143943
413,maine-soroa,13.21,12.02,303.67,14,0,2.87,NE,1603143943
414,salalah,17.02,54.09,302.15,45,75,1.5,OM,1603143944
415,suslovo,56.22,88.12,273.24,94,100,5.84,RU,1603143944
416,sinfra,6.62,-5.92,297.15,94,75,1.01,CI,1603143944
417,vangaindrano,-23.35,47.6,294.55,89,96,2.58,MG,1603143944
418,paamiut,61.99,-49.67,278.2,77,100,8.12,GL,1603143945
419,marystown,47.17,-55.15,286.48,100,72,2.25,CA,1603143945
420,jalakandapuram,11.7,77.87,296.87,85,100,0.51,IN,1603143945
421,mocuba,-16.84,36.99,293.62,89,0,1.02,MZ,1603143945
422,ahipara,-35.17,173.17,291.05,68,99,4.88,NZ,1603143946
423,mata,40.68,-7.46,288.71,89,100,1.65,PT,1603143946
424,neuquen,-38.95,-68.06,296.15,20,0,5.7,AR,1603143946
425,russell,32.35,-85.2,299.91,45,1,2.1,US,1603143946
426,grand gaube,-20.01,57.66,294.82,75,24,0.89,MU,1603143946
427,zuwarah,32.93,12.08,294.08,54,0,3.23,LY,1603143947
428,eyl,7.98,49.82,300.42,76,22,1.33,SO,1603143947
429,tatishchevo,51.67,45.6,282.04,48,100,0.89,RU,1603143947
430,roma,43.21,-75.46,285.44,87,90,2.1,US,1603143914
431,clarence town,-32.58,151.78,290.3,88,75,0.72,AU,1603143948
432,haapiti,-17.57,-149.87,301.55,70,75,7.7,PF,1603143948
433,aljezur,37.32,-8.8,293.15,93,100,4.92,PT,1603143948
434,suozhen,36.95,118.1,285.93,41,38,1.51,CN,1603143949
435,pokhara,28.23,83.98,291.46,59,1,2.05,NP,1603143949
436,san luis,-33.3,-66.34,289.86,32,7,12.73,AR,1603143769
437,ust-nera,64.57,143.2,256.75,83,65,1.35,RU,1603143949
438,rawson,-43.3,-65.1,287.63,34,19,5.2,AR,1603143948
439,puerto madryn,-42.77,-65.04,289.55,29,0,8.81,AR,1603143901
440,vardo,70.37,31.11,273.65,69,40,5.1,NO,1603143950
441,son la,21.32,103.9,288.69,95,100,0.72,VN,1603143950
442,ca mau,9.18,105.15,298.1,90,100,1.22,VN,1603143951
443,sesheke,-17.48,24.3,297.15,19,0,1.0,ZM,1603143951
444,gornje zivinice,44.43,18.62,276.15,93,2,1.0,BA,1603143951
445,riyadh,24.69,46.72,293.15,23,0,1.5,SA,1603143951
446,whyalla,-33.03,137.58,285.15,93,82,1.0,AU,1603143952
447,lusambo,-4.97,23.45,294.57,95,40,0.64,CD,1603143952
448,mildura,-34.2,142.15,286.31,71,0,2.6,AU,1603143952
449,kaputa,-8.47,29.66,297.2,52,10,1.09,ZM,1603143952
450,erdaojiang,41.78,126.03,278.64,77,0,1.19,CN,1603143953
451,shelburne,44.08,-80.2,281.3,58,100,1.79,CA,1603143787
452,van,38.49,43.38,279.15,56,0,0.5,TR,1603143953
453,matara,5.95,80.54,298.61,88,87,4.42,LK,1603143953
454,pauini,-7.71,-66.98,297.05,95,100,0.92,BR,1603143954
455,atherton,53.52,-2.49,284.18,71,100,3.58,GB,1603143954
456,kurumkan,54.3,110.3,272.57,87,100,3.17,RU,1603143954
457,premia de mar,41.49,2.37,290.35,82,0,2.59,ES,1603143954
458,lindi,-10.0,39.72,296.71,86,5,1.36,TZ,1603143955
459,melilla,35.29,-2.94,290.69,82,40,1.44,ES,1603143955
460,yilan,24.76,121.75,296.32,83,75,6.2,TW,1603143955
461,jiuquan,39.74,98.52,283.37,41,0,9.49,CN,1603143955
462,kiama,-34.68,150.87,289.85,76,77,0.89,AU,1603143956
463,vila,42.03,-8.16,287.59,94,100,2.33,PT,1603143956
464,kasane,-17.82,25.15,295.71,21,0,1.5,BW,1603143956
465,palasbari,26.14,91.55,296.46,91,5,1.08,IN,1603143956
466,kawalu,-7.38,108.21,295.12,92,99,0.65,ID,1603143956
467,shrigonda,18.62,74.68,296.84,88,91,2.17,IN,1603143957
468,kabo,7.7,18.63,296.25,75,44,0.63,CF,1603143957
469,nara,34.69,135.8,284.73,100,75,1.0,JP,1603143957
470,thinadhoo,0.53,72.93,301.21,78,100,6.17,MV,1603143957
471,naze,28.37,129.48,297.15,83,40,8.7,JP,1603143958
472,jamkhandi,16.52,75.3,294.89,94,100,3.97,IN,1603143958
473,port-cartier,50.03,-66.87,278.34,86,90,3.1,CA,1603143958
474,maniitsoq,65.42,-52.9,276.27,95,100,14.24,GL,1603143959
475,ekibastuz,51.67,75.37,279.96,56,60,6.48,KZ,1603143959
476,cao bang,22.67,106.25,290.13,75,92,1.12,VN,1603143959
477,tilichiki,60.47,166.1,276.07,99,100,1.03,RU,1603143959
478,champerico,14.3,-91.92,301.32,62,75,3.1,GT,1603143960
479,anadyr,64.75,177.48,274.97,69,76,5.0,RU,1603143960
480,millinocket,45.66,-68.71,284.8,62,90,1.45,US,1603143960
481,bacolod,10.67,122.95,298.94,83,100,0.68,PH,1603143960
482,changtu,42.78,124.1,282.49,74,0,4.6,CN,1603143961
483,jimma,7.67,36.83,286.96,85,2,0.15,ET,1603143961
484,concepcion del uruguay,-32.48,-58.24,300.38,78,53,2.56,AR,1603143961
485,turmalina,-17.29,-42.73,293.2,79,100,2.37,BR,1603143962
486,snezhnogorsk,69.19,33.25,273.15,88,75,1.0,RU,1603143962
487,mount pleasant,32.79,-79.86,297.25,69,1,5.45,US,1603143780
488,arizona,34.5,-111.5,299.96,14,0,0.89,US,1603143962
489,kondinskoye,59.65,67.41,275.14,96,56,3.69,RU,1603143963
490,karaton,-6.34,106.1,298.15,88,20,2.1,ID,1603143963
491,nome,64.5,-165.41,276.02,86,90,2.6,US,1603143963
492,jaisalmer,26.91,70.92,301.61,31,6,2.5,IN,1603143963
493,dudinka,69.41,86.18,263.15,92,90,2.0,RU,1603143963
494,ixtapa,20.7,-105.2,304.7,70,40,6.7,MX,1603143964
495,north bend,43.41,-124.22,290.4,72,20,7.7,US,1603143775
496,gusinoye ozero,51.11,106.26,271.75,85,100,5.89,RU,1603143964
497,henties bay,-22.12,14.28,287.59,87,0,0.89,NA,1603143964
498,altea,38.6,-0.05,291.29,84,2,0.75,ES,1603143964
499,outjo,-20.12,16.15,293.76,25,0,4.47,NA,1603143965
500,sur,22.57,59.53,299.77,39,5,4.63,OM,1603143965
501,plainview,40.78,-73.47,289.84,68,20,4.1,US,1603143692
502,havoysund,71.0,24.66,274.15,100,75,3.1,NO,1603143965
503,roxas,11.59,122.75,299.01,91,100,4.34,PH,1603143965
504,conway,35.09,-92.44,296.02,78,75,1.5,US,1603143965
505,les cayes,18.2,-73.75,300.83,76,97,2.39,HT,1603143966
506,dunedin,-45.87,170.5,283.71,60,43,7.6,NZ,1603143933
507,kot diji,27.34,68.71,297.55,15,0,2.45,PK,1603143966
508,thunder bay,48.4,-89.32,275.37,60,98,2.23,CA,1603143692
509,riverton,40.52,-111.94,293.81,26,1,7.2,US,1603143966
510,changzhou,31.78,119.97,287.41,82,0,1.71,CN,1603143967
511,rorvik,64.86,11.24,275.15,80,99,2.1,NO,1603143967
512,santa rosa,14.31,121.11,299.98,88,90,1.5,PH,1603143967
513,namibe,-15.2,12.15,294.44,72,15,1.75,AO,1603143967
514,aksarka,66.56,67.8,263.15,94,0,1.77,RU,1603143968
515,coihaique,-45.58,-72.07,281.15,61,75,4.1,CL,1603143968
516,jiwani,25.05,61.74,299.28,30,0,3.29,PK,1603143968
517,vredendal,-31.67,18.5,286.63,79,68,4.23,ZA,1603143827
518,lumajang,-8.13,113.22,296.27,86,47,0.49,ID,1603143968
519,carutapera,-1.2,-46.02,299.76,78,20,2.9,BR,1603143969
520,bertoua,4.58,13.68,294.06,91,91,0.45,CM,1603143969
521,sabang,5.89,95.32,301.29,74,94,3.95,ID,1603143969
522,mayo,38.89,-76.51,292.7,64,1,3.1,US,1603143969
523,glens falls,43.31,-73.64,286.3,87,90,2.1,US,1603143900
524,parabel,58.7,81.48,273.81,97,100,4.73,RU,1603143970
525,antofagasta,-23.65,-70.4,288.15,82,90,5.7,CL,1603143726
526,andilamena,-17.02,48.58,290.57,87,95,4.32,MG,1603143970
527,tacuarembo,-31.73,-55.98,298.14,73,0,0.87,UY,1603143711
528,el tigre,8.89,-64.25,302.16,57,53,2.0,VE,1603143970
529,dzaoudzi,-12.79,45.27,298.15,83,0,4.6,YT,1603143971
530,troitskoye,52.98,84.68,274.51,84,100,3.93,RU,1603143971
531,jalu,29.03,21.55,296.83,45,23,4.01,LY,1603143971
532,jamame,0.07,42.75,298.17,85,5,3.96,SO,1603143971
533,fairbanks,64.84,-147.72,266.1,85,90,0.5,US,1603143972
534,pemba,-12.97,40.52,298.02,80,0,1.85,MZ,1603143972
535,kingston,18.0,-76.79,303.15,74,75,6.2,JM,1603143743
536,esperance,-33.87,121.9,287.15,100,90,5.1,AU,1603143972
537,shush,32.19,48.24,291.25,37,0,1.01,IR,1603143972
538,poronaysk,49.22,143.12,273.18,90,9,3.01,RU,1603143973
539,port macquarie,-31.43,152.92,292.0,80,81,0.89,AU,1603143963
540,seoul,37.57,126.98,282.15,100,1,0.92,KR,1603143516
541,hirara,24.8,125.28,298.15,94,75,6.2,JP,1603143973
542,lakes entrance,-37.88,147.98,287.59,76,20,1.34,AU,1603143973
543,zhigansk,66.77,123.37,264.38,96,100,4.59,RU,1603143974
544,oranjemund,-28.55,16.43,287.6,88,9,5.41,NA,1603143974
545,half moon bay,37.46,-122.43,299.02,49,1,8.7,US,1603143974
546,pasan,22.85,82.2,292.88,71,82,0.51,IN,1603143974
547,nizhniy kuranakh,58.84,125.49,270.3,97,100,2.06,RU,1603143974
548,beira,-19.84,34.84,295.0,87,0,2.99,MZ,1603143975
549,porto novo,6.5,2.6,300.15,83,40,2.6,BJ,1603143975
550,kharitonovo,61.4,47.5,272.56,98,57,2.27,RU,1603143975
551,pevek,69.7,170.31,269.13,94,0,6.48,RU,1603143975
552,el salto,20.33,-104.5,302.59,42,39,0.45,MX,1603143976
553,deputatskiy,69.3,139.9,260.57,95,100,2.04,RU,1603143976
554,doha,25.29,51.53,300.75,42,0,2.6,QA,1603143765
555,prince rupert,54.32,-130.32,281.15,93,90,3.1,CA,1603143976
556,mehamn,71.04,27.85,276.15,86,75,5.7,NO,1603143976
557,soyo,-6.13,12.37,298.01,85,10,3.09,AO,1603143977
