,City,Lat,Lng,Max Temp,Humidity,Cloudiness,Wind Speed,Country,Date
0,luoyang,34.68,112.45,60.01,99,56,7.78,CN,1603226235
1,arraial do cabo,-22.97,-42.03,77.0,73,0,18.34,BR,1603225956
2,new norfolk,-42.78,147.06,49.28,71,99,1.92,AU,1603225941
3,tasiilaq,65.61,-37.64,32.0,93,100,21.92,GL,1603226235
4,hithadhoo,-0.6,73.08,82.15,80,97,14.03,MV,1603226236
5,ondjiva,-17.07,15.73,76.42,17,0,0.56,AO,1603226236
6,axim,4.87,-2.24,77.29,88,99,9.01,GH,1603226236
7,saskylakh,71.92,114.08,20.84,97,99,7.76,RU,1603225956
8,rikitea,-23.12,-134.97,73.51,79,0,14.97,PF,1603225976
9,carnarvon,-24.87,113.63,66.2,82,38,14.99,AU,1603225957
10,port elizabeth,-33.92,25.57,54.0,84,0,1.01,ZA,1603226237
11,jardim,-21.48,-56.14,83.03,62,47,5.17,BR,1603226237
12,trairi,-3.28,-39.27,79.52,70,46,12.21,BR,1603225966
13,tuktoyaktuk,69.45,-133.04,23.0,85,90,18.34,CA,1603226229
14,bredasdorp,-34.53,20.04,50.0,81,0,2.24,ZA,1603226006
15,ushuaia,-54.8,-68.3,44.6,62,75,14.99,AR,1603226239
16,kodiak,57.79,-152.41,46.4,49,1,14.99,US,1603226239
17,awjilah,29.11,21.29,69.78,64,0,14.7,LY,1603226013
18,prince rupert,54.32,-130.32,42.8,93,90,6.93,CA,1603225982
19,esperance,-33.87,121.9,57.2,100,90,9.17,AU,1603226239
20,kapaa,22.08,-159.32,77.0,88,75,10.29,US,1603226240
21,mar del plata,-38.0,-57.56,54.64,50,22,8.05,AR,1603226240
22,ancud,-41.87,-73.82,53.6,50,0,11.41,CL,1603226000
23,erzin,36.96,36.2,75.99,75,2,1.86,TR,1603226240
24,bengkulu,-3.8,102.27,76.6,80,100,3.53,ID,1603226018
25,la palma,33.85,-118.05,76.15,50,1,7.02,US,1603226241
26,bluff,-46.6,168.33,48.99,79,67,4.0,NZ,1603226014
27,nizhniy kuranakh,58.84,125.49,24.6,97,100,2.68,RU,1603226241
28,bobovdol,42.37,23.02,44.15,80,0,5.82,BG,1603226241
29,gladstone,-23.85,151.25,73.4,73,75,8.05,AU,1603226033
30,khandyga,62.67,135.6,14.29,96,95,4.07,RU,1603225987
31,port alfred,-33.59,26.89,58.19,71,0,8.84,ZA,1603225948
32,hobart,-42.88,147.33,51.78,87,75,2.77,AU,1603226029
33,oranjestad,12.52,-70.03,77.0,88,20,11.41,AW,1603226242
34,kangaatsiaq,68.31,-53.46,36.54,93,100,18.99,GL,1603226242
35,souillac,-20.52,57.52,75.2,73,20,11.41,MU,1603226041
36,saint-philippe,-21.36,55.77,68.11,73,18,6.93,RE,1603226243
37,fenoarivo,-18.93,47.44,62.6,82,20,5.82,MG,1603226243
38,kudahuvadhoo,2.67,72.89,82.27,79,100,12.48,MV,1603226244
39,haapiti,-17.57,-149.87,84.09,66,20,17.22,PF,1603226244
40,mataura,-46.19,168.86,48.99,79,45,4.0,NZ,1603226244
41,dingle,11.0,122.67,76.12,91,95,8.3,PH,1603226079
42,thompson,55.74,-97.86,30.2,68,90,3.36,CA,1603225995
43,owando,-0.48,15.9,69.48,96,100,2.93,CG,1603226245
44,geraldton,-28.77,114.6,64.4,77,90,14.99,AU,1603226245
45,flin flon,54.77,-101.86,30.2,46,90,3.36,CA,1603226213
46,bongandanga,1.5,21.05,70.93,94,30,1.63,CD,1603226245
47,busselton,-33.65,115.33,51.49,90,0,7.0,AU,1603226245
48,bethel,41.37,-73.41,67.32,77,40,9.17,US,1603226246
49,vaini,-21.2,-175.2,75.2,64,40,10.29,TO,1603226008
50,atuona,-9.8,-139.03,77.77,73,4,18.05,PF,1603226246
51,torbay,47.67,-52.73,56.75,76,75,16.11,CA,1603226116
52,ponta do sol,32.67,-17.1,64.02,60,20,3.36,PT,1603225969
53,khatanga,71.97,102.5,5.88,95,83,8.23,RU,1603226247
54,yellowknife,62.46,-114.35,25.65,73,75,9.17,CA,1603226247
55,saldanha,-33.01,17.94,57.2,71,0,11.41,ZA,1603226247
56,sawtell,-30.38,153.1,59.0,93,75,2.24,AU,1603226247
57,fortuna,40.6,-124.16,65.12,67,1,14.99,US,1603226248
58,katherine,-14.47,132.27,82.4,69,0,4.7,AU,1603226248
59,norman wells,65.28,-126.83,21.2,85,75,13.87,CA,1603226248
60,aksu,41.12,80.26,49.78,43,0,3.87,CN,1603226248
61,lebu,-37.62,-73.65,52.52,67,0,19.69,CL,1603226248
62,nkhotakota,-12.93,34.3,78.91,55,1,2.55,MW,1603226249
63,punta arenas,-53.15,-70.92,50.0,46,75,13.87,CL,1603225989
64,mormugao,15.4,73.8,77.0,100,90,4.7,IN,1603226249
65,abaza,52.66,90.09,34.34,87,50,5.12,RU,1603226249
66,murmino,54.6,40.05,33.98,89,52,5.01,RU,1603226249
67,pevek,69.7,170.31,30.51,95,100,18.05,RU,1603226250
68,hermanus,-34.42,19.23,48.99,87,0,3.29,ZA,1603226250
69,castro,-24.79,-50.01,70.23,77,58,0.47,BR,1603226250
70,mahebourg,-20.41,57.7,75.2,73,20,11.41,MU,1603226040
71,faya,18.39,42.45,61.65,18,0,8.05,SA,1603226027
72,qasigiannguit,68.82,-51.19,37.4,74,75,10.29,GL,1603226251
73,east london,-33.02,27.91,61.39,67,9,10.38,ZA,1603226251
74,kikwit,-5.04,18.82,73.18,93,100,0.4,CD,1603226251
75,vila velha,-20.33,-40.29,75.49,88,90,5.82,BR,1603226252
76,boa vista,2.82,-60.67,95.0,39,75,9.17,BR,1603226252
77,rio grande,-32.03,-52.1,66.99,85,100,4.0,BR,1603225953
78,valley city,46.92,-98.0,32.0,97,90,12.75,US,1603226252
79,pangnirtung,66.15,-65.71,26.6,100,90,2.24,CA,1603226252
80,mehamn,71.04,27.85,28.4,92,75,8.05,NO,1603225978
81,zabol,32.25,67.25,42.31,44,0,6.42,AF,1603226253
82,mount isa,-20.73,139.5,78.8,26,90,11.27,AU,1603226253
83,san cristobal,7.77,-72.22,86.0,58,40,13.87,VE,1603225987
84,dolores,-36.31,-57.68,56.41,54,63,11.86,AR,1603226253
85,hanmer springs,-42.52,172.82,55.35,54,0,2.59,NZ,1603226254
86,makakilo city,21.35,-158.09,80.01,83,40,12.75,US,1603225954
87,saurimo,-9.66,20.39,68.92,62,34,3.51,AO,1603226254
88,bonthe,7.53,-12.51,78.39,84,99,3.91,SL,1603225960
89,genhe,50.78,121.52,32.56,91,100,2.24,CN,1603225987
90,leningradskiy,69.38,178.42,34.45,85,100,9.4,RU,1603226037
91,isangel,-19.55,169.27,71.6,88,75,10.29,VU,1603226255
92,korfovskiy,48.22,135.06,33.8,64,100,6.71,RU,1603226255
93,teguldet,57.31,88.17,33.3,97,98,4.99,RU,1603226255
94,sitka,57.05,-135.33,44.6,81,20,3.36,US,1603226255
95,tiksi,71.69,128.87,10.0,92,100,11.07,RU,1603226256
96,toccoa,34.58,-83.33,75.7,47,1,4.34,US,1603226256
97,harper,4.38,-7.72,77.54,81,95,7.14,LR,1603226256
98,puerto ayora,-0.74,-90.35,74.48,69,75,11.41,EC,1603226256
99,airai,-8.93,125.41,59.81,78,95,1.9,TL,1603226019
100,lagoa,39.05,-27.98,63.41,67,49,28.83,PT,1603226257
101,jamestown,42.1,-79.24,47.41,93,90,6.93,US,1603226257
102,salalah,17.02,54.09,80.6,51,70,2.24,OM,1603226258
103,zhezkazgan,47.8,67.71,47.17,37,0,7.0,KZ,1603226258
104,serebryansk,49.69,83.29,26.6,86,23,2.24,KZ,1603226258
105,guerrero negro,27.98,-114.06,80.1,55,1,14.09,MX,1603226258
106,humaita,-7.51,-63.02,90.63,52,92,1.12,BR,1603226203
107,trat,12.5,102.5,72.59,92,99,5.14,TH,1603226259
108,quatre cocos,-20.21,57.76,75.09,73,20,11.41,MU,1603226020
109,ixtapa,20.7,-105.2,89.8,70,40,9.17,MX,1603226259
110,ternuvate,47.83,36.13,42.8,81,100,5.5,UA,1603226259
111,hilo,19.73,-155.09,80.64,54,1,11.41,US,1603225989
112,yuci,37.68,112.73,50.0,13,0,13.42,CN,1603226260
113,chokurdakh,70.63,147.92,12.02,97,87,3.11,RU,1603226260
114,upernavik,72.79,-56.15,33.98,85,100,3.44,GL,1603226260
115,kununurra,-15.77,128.73,78.8,94,40,3.53,AU,1603226261
116,juruti,-2.15,-56.09,93.22,38,27,6.62,BR,1603226261
117,gao,16.64,1.64,92.84,13,0,7.74,ML,1603226161
118,cidreira,-30.18,-50.21,69.42,89,13,8.7,BR,1603226261
119,caravelas,-17.71,-39.25,73.96,91,87,6.24,BR,1603226261
120,bambous virieux,-20.34,57.76,75.11,73,20,11.41,MU,1603226009
121,lufilufi,-13.87,-171.6,77.0,94,90,4.7,WS,1603226262
122,yerbogachen,61.28,108.01,20.97,97,98,7.29,RU,1603226262
123,lavrentiya,65.58,-171.0,37.51,94,100,12.91,RU,1603226160
124,pottsville,40.69,-76.2,71.49,60,75,2.86,US,1603225971
125,marawi,8.0,124.29,75.0,94,100,5.01,PH,1603226263
126,angoche,-16.23,39.91,76.48,80,0,7.65,MZ,1603226263
127,mount gambier,-37.83,140.77,44.6,100,90,3.62,AU,1603226263
128,khislavichi,54.19,32.16,33.75,91,77,5.61,RU,1603226263
129,bundaberg,-24.85,152.35,67.69,82,75,5.82,AU,1603226263
130,barrow,71.29,-156.79,26.6,79,90,10.29,US,1603226264
131,cape town,-33.93,18.42,54.73,66,0,8.05,ZA,1603226264
132,kungurtug,50.6,97.52,22.69,92,100,0.27,RU,1603226264
133,baracoa,20.35,-74.5,81.59,78,80,5.61,CU,1603226264
134,denpasar,-8.65,115.22,78.8,100,20,2.24,ID,1603226264
135,albany,42.6,-73.97,63.36,78,100,3.0,US,1603226265
136,ribeira grande,38.52,-28.7,62.6,59,40,5.82,PT,1603225993
137,taoudenni,22.68,-3.98,82.56,17,0,9.24,ML,1603226265
138,matara,5.95,80.54,77.86,88,13,9.64,LK,1603225984
139,ilulissat,69.22,-51.1,37.4,74,75,10.29,GL,1603226019
140,asasa,7.1,39.2,50.31,73,33,2.66,ET,1603226266
141,iskateley,67.68,53.15,26.74,98,99,6.67,RU,1603226266
142,acurenam,1.03,10.65,68.86,98,96,4.21,GQ,1603226266
143,brae,60.4,-1.35,48.2,93,100,25.28,GB,1603226266
144,hasaki,35.73,140.83,49.82,93,20,8.05,JP,1603225985
145,dikson,73.51,80.55,21.76,97,98,4.76,RU,1603226228
146,poum,-20.23,164.02,74.19,69,0,5.37,NC,1603226267
147,radhanpur,23.83,71.6,85.66,63,0,6.24,IN,1603226267
148,faanui,-16.48,-151.75,78.87,81,26,16.15,PF,1603226146
149,chala,-7.58,31.27,66.2,68,5,2.86,TZ,1603226268
150,katwijk,52.19,4.42,57.99,88,100,3.0,NL,1603226268
151,abu dhabi,24.47,54.37,80.83,61,0,5.82,AE,1603226205
152,kahului,20.89,-156.47,83.12,45,20,8.05,US,1603226026
153,verkhoyansk,67.54,133.38,8.74,90,90,3.53,RU,1603226268
154,ukiah,39.15,-123.21,86.67,20,1,8.43,US,1603226269
155,rassvet,46.83,40.75,46.89,62,18,6.96,RU,1603226269
156,athabasca,54.72,-113.29,31.89,83,1,7.16,CA,1603226269
157,raga,8.46,25.68,72.55,87,41,4.16,SS,1603226269
158,san quintin,30.48,-115.95,73.76,68,0,16.2,MX,1603226025
159,polovinnoye,54.79,65.99,45.27,88,100,8.1,RU,1603226270
160,lakes entrance,-37.88,147.98,54.0,95,100,5.95,AU,1603226270
161,rawson,-43.3,-65.1,54.28,49,97,18.16,AR,1603225980
162,fallon,39.47,-118.78,74.16,17,20,4.59,US,1603226270
163,brewster,41.4,-73.62,67.33,77,40,9.17,US,1603226110
164,clyde river,70.47,-68.59,30.2,74,90,16.11,CA,1603225995
165,laguna,38.42,-121.42,85.82,24,1,2.53,US,1603226271
166,asau,46.43,26.4,39.2,93,0,1.12,RO,1603226271
167,kargasok,59.06,80.86,36.93,96,100,9.15,RU,1603226271
168,luanda,-8.84,13.23,77.0,83,20,8.05,AO,1603226177
169,beringovskiy,63.05,179.32,40.64,87,99,13.02,RU,1603226003
170,novi iskar,42.8,23.35,43.56,80,0,5.82,BG,1603226272
171,lashio,22.93,97.75,65.55,99,98,0.92,MM,1603226272
172,college,64.86,-147.8,18.07,85,90,3.36,US,1603226272
173,butaritari,3.07,172.79,81.91,77,93,11.92,KI,1603226229
174,sao filipe,14.9,-24.5,84.54,59,100,6.71,CV,1603226273
175,coquimbo,-29.95,-71.34,60.8,72,1,16.11,CL,1603226152
176,nichinan,31.6,131.37,66.16,75,28,10.92,JP,1603226273
177,vredendal,-31.67,18.5,56.77,63,0,9.13,ZA,1603226273
178,fort nelson,58.81,-122.7,23.0,57,75,5.82,CA,1603226274
179,avarua,-21.21,-159.78,77.0,88,35,5.82,CK,1603226274
180,sabang,5.89,95.32,82.36,77,91,15.3,ID,1603226274
181,bucksport,44.57,-68.8,59.58,90,91,7.0,US,1603226274
182,boende,-0.22,20.87,72.63,89,100,0.78,CD,1603226275
183,palu,-0.89,119.87,75.72,81,98,2.64,ID,1603226275
184,haines junction,60.75,-137.51,29.44,81,100,3.67,CA,1603225983
185,tura,25.52,90.22,72.07,92,0,2.89,IN,1603226275
186,chifeng,42.27,118.96,40.35,62,0,10.8,CN,1603226275
187,kalmunai,7.42,81.82,78.94,79,33,5.17,LK,1603226276
188,provideniya,64.38,-173.3,42.8,87,90,11.18,RU,1603226018
189,ron,15.67,75.73,72.0,93,100,3.69,IN,1603226276
190,lazarev,52.23,141.51,41.49,68,70,15.1,RU,1603226276
191,saint george,37.1,-113.58,81.21,12,1,2.75,US,1603226276
192,semey,50.41,80.23,41.22,58,4,11.61,KZ,1603226032
193,georgetown,5.41,100.34,80.29,88,20,3.36,MY,1603226134
194,warmbad,-28.45,18.73,62.28,27,0,10.2,NA,1603226277
195,codrington,-38.27,141.97,47.61,88,28,2.91,AU,1603226277
196,mandapam,9.28,79.12,82.38,78,85,14.88,IN,1603226277
197,pudozh,61.81,36.53,30.36,97,85,6.69,RU,1603226278
198,la ronge,55.1,-105.28,26.6,58,90,4.7,CA,1603226278
199,mae hong son,19.3,97.97,67.64,85,94,1.95,TH,1603226278
200,terrace bay,48.78,-87.1,39.2,44,75,4.7,CA,1603226278
201,betare oya,5.6,14.08,71.6,79,94,2.3,CM,1603226278
202,inhambane,-23.86,35.38,73.49,90,0,9.01,MZ,1603226279
203,saint-pierre,-21.34,55.48,68.25,73,22,6.93,RE,1603226279
204,qaanaaq,77.48,-69.36,20.98,83,0,6.51,GL,1603226279
205,egvekinot,66.32,-179.17,34.14,100,100,7.36,RU,1603226279
206,touros,-5.2,-35.46,80.6,69,20,10.29,BR,1603226279
207,hami,42.8,93.45,46.11,48,0,4.23,CN,1603226280
208,meulaboh,4.14,96.13,76.87,85,54,4.59,ID,1603226280
209,sovetskiy,61.36,63.58,32.79,95,100,5.3,RU,1603226069
210,petropavlovsk-kamchatskiy,53.05,158.65,24.8,79,0,6.71,RU,1603226280
211,bonfim,3.08,-59.95,90.52,50,99,6.51,BR,1603226280
212,soyo,-6.13,12.37,77.27,80,83,6.24,AO,1603226281
213,acarau,-2.89,-40.12,79.68,72,22,19.46,BR,1603226281
214,homer,59.64,-151.55,39.51,80,1,5.82,US,1603226281
215,nola,40.92,14.53,54.54,82,22,1.12,IT,1603226281
216,northam,51.03,-4.22,56.98,93,100,5.99,GB,1603226159
217,pisco,-13.7,-76.22,66.97,77,3,9.17,PE,1603226282
218,lorengau,-2.02,147.27,82.29,67,96,1.19,PG,1603226282
219,yarmouth,41.71,-70.23,60.82,100,90,4.38,US,1603226282
220,soe,-9.86,124.28,67.33,71,85,3.47,ID,1603226282
221,comodoro rivadavia,-45.87,-67.5,53.6,57,51,17.22,AR,1603226282
222,lewiston,44.1,-70.21,58.77,87,90,3.36,US,1603226254
223,bereda,43.27,-7.54,54.66,100,100,1.99,ES,1603226283
224,katsuura,35.13,140.3,59.0,77,20,14.99,JP,1603226283
225,newport,51.59,-3.0,56.95,97,100,1.01,GB,1603226283
226,voula,37.84,23.78,62.22,59,20,14.16,GR,1603226283
227,mogadishu,2.04,45.34,79.18,82,2,15.59,SO,1603226179
228,nishihara,26.18,127.76,79.21,74,75,16.11,JP,1603226142
229,tandalti,13.02,31.87,91.98,18,13,8.12,SD,1603226284
230,haverfordwest,51.8,-4.97,57.4,100,88,16.11,GB,1603226285
231,cherskiy,68.75,161.3,20.37,97,93,5.97,RU,1603226285
232,narsaq,60.92,-46.05,33.8,86,40,3.36,GL,1603226285
233,kaitangata,-46.28,169.85,50.02,63,96,3.49,NZ,1603226285
234,erenhot,43.65,111.98,28.4,76,0,20.24,CN,1603226286
235,xinzhi,36.5,111.7,52.21,35,33,8.16,CN,1603226286
236,abu zabad,12.35,29.25,83.62,33,0,1.88,SD,1603226286
237,maragogi,-9.01,-35.22,75.79,78,31,7.76,BR,1603226287
238,virginia beach,36.85,-75.98,71.42,83,90,5.82,US,1603226145
239,vagur,61.47,-6.81,45.86,70,18,29.28,FO,1603226287
240,chuy,-33.7,-53.46,55.06,84,100,15.28,UY,1603226287
241,prachuap khiri khan,12.22,99.75,71.65,93,100,3.31,TH,1603226287
242,vao,-22.67,167.48,72.9,83,25,15.05,NC,1603226288
243,port hardy,50.7,-127.42,50.0,87,75,2.24,CA,1603226288
244,abnub,27.27,31.15,80.6,47,0,10.29,EG,1603226288
245,iqaluit,63.75,-68.51,28.2,92,90,12.75,CA,1603226288
246,tvedestrand,58.62,8.93,47.08,93,91,3.36,NO,1603226289
247,puerto del rosario,28.5,-13.86,75.2,78,20,6.93,ES,1603226289
248,joao pinheiro,-17.74,-46.17,65.66,95,100,3.71,BR,1603226289
249,namibe,-15.2,12.15,68.63,82,66,5.1,AO,1603226289
250,calvinia,-31.47,19.78,56.46,36,0,3.74,ZA,1603226289
251,duldurga,50.68,113.59,22.51,86,0,12.26,RU,1603226290
252,ahipara,-35.17,173.17,64.33,62,100,5.28,NZ,1603226290
253,victoria,22.29,114.16,69.28,69,43,1.01,HK,1603226112
254,sumenep,-7.02,113.87,80.91,76,21,3.38,ID,1603226290
255,maxixe,-23.86,35.35,72.82,91,0,8.19,MZ,1603226291
256,buala,-8.14,159.59,83.5,73,95,5.75,SB,1603226004
257,ambon,-3.7,128.18,82.0,88,84,2.84,ID,1603226291
258,cabo san lucas,22.89,-109.91,91.35,52,5,8.05,MX,1603226291
259,kruisfontein,-34.0,24.73,54.0,84,0,1.01,ZA,1603226292
260,palma del rio,37.7,-5.28,68.14,53,100,18.34,ES,1603226292
261,oriximina,-1.77,-55.87,91.96,42,1,7.07,BR,1603226292
262,dubbo,-32.25,148.62,59.0,82,75,12.75,AU,1603226179
263,usinsk,65.99,57.53,23.67,96,95,2.68,RU,1603226292
264,sorland,67.67,12.69,35.6,74,75,8.05,NO,1603226293
265,nara,34.69,135.8,54.03,93,20,2.24,JP,1603226293
266,banjarmasin,-3.32,114.59,75.0,87,86,1.5,ID,1603226293
267,picota,-6.92,-76.33,87.8,62,40,4.7,PE,1603226293
268,rincon,32.3,-81.24,80.67,65,90,9.17,US,1603226124
269,kanigoro,-8.13,112.22,74.84,89,70,4.0,ID,1603226293
270,malumfashi,11.79,7.62,75.16,32,19,2.15,NG,1603226294
271,san jose,37.34,-121.89,85.62,36,1,5.48,US,1603226049
272,deputatskiy,69.3,139.9,10.02,97,100,2.82,RU,1603226294
273,villa carlos paz,-31.42,-64.5,57.83,98,100,7.45,AR,1603226294
274,praia,14.92,-23.51,82.4,74,100,13.87,CV,1603226295
275,harnosand,62.63,17.94,36.45,93,100,10.29,SE,1603226295
276,sardarshahr,28.43,74.48,78.44,17,0,8.63,IN,1603226295
277,kinshasa,-4.32,15.32,82.4,74,20,2.24,CD,1603226271
278,ormara,25.21,64.64,80.92,27,7,13.11,PK,1603226295
279,norden,53.6,7.2,53.89,93,75,9.17,DE,1603226296
280,sohag,26.56,31.69,82.4,24,0,6.93,EG,1603226296
281,sheridan,44.83,-106.92,43.93,70,90,3.36,US,1603226296
282,chicama,-7.84,-79.15,66.2,77,24,11.41,PE,1603226296
283,coahuayana,18.73,-103.68,84.2,66,40,11.41,MX,1603226296
284,elizabeth city,36.29,-76.25,79.45,69,1,5.82,US,1603226297
285,gavrilov posad,56.56,40.12,33.35,91,51,12.41,RU,1603226297
286,sao felix do xingu,-6.64,-51.99,86.79,49,84,3.2,BR,1603226297
287,praia da vitoria,38.73,-27.07,59.86,82,75,27.49,PT,1603226272
288,palana,59.12,159.97,32.72,99,100,3.62,RU,1603226298
289,huarmey,-10.07,-78.15,68.88,67,20,10.38,PE,1603226298
290,okhotsk,59.38,143.3,24.75,81,98,10.76,RU,1603226298
291,den helder,52.96,4.76,57.69,87,90,14.99,NL,1603226298
292,porto seguro,-16.45,-39.06,73.4,88,90,4.7,BR,1603226298
293,half moon bay,37.46,-122.43,77.54,73,5,5.82,US,1603226247
294,colac,-38.33,143.58,45.34,93,93,1.36,AU,1603226295
295,xiongzhou,25.12,114.3,57.96,88,31,2.06,CN,1603226070
296,naantali,60.47,22.02,32.67,80,90,9.17,FI,1603226299
297,ambanja,-13.68,48.45,76.75,79,55,1.83,MG,1603226299
298,xalpatlahuac,17.47,-98.62,75.43,49,92,4.03,MX,1603226300
299,rio gallegos,-51.62,-69.22,53.6,32,100,6.93,AR,1603226300
300,sinnamary,5.38,-52.95,82.27,72,100,13.67,GF,1603226300
301,hermon,44.81,-68.91,57.04,87,90,3.36,US,1603226300
302,reconquista,-29.15,-59.65,78.28,70,77,18.97,AR,1603226301
303,dudinka,69.41,86.18,5.0,92,90,2.24,RU,1603226301
304,nizhnyaya maktama,54.86,52.43,36.75,82,99,7.65,RU,1603226301
305,bria,6.54,21.99,71.01,88,100,3.49,CF,1603226301
306,luce,48.44,1.46,56.37,95,100,5.01,FR,1603226301
307,nome,64.5,-165.41,33.8,86,75,6.93,US,1603226302
308,redwater,33.36,-94.25,83.03,48,1,10.29,US,1603226302
309,yaan,7.38,8.57,76.41,91,80,5.77,NG,1603226302
310,hambantota,6.12,81.12,78.94,83,47,16.49,LK,1603226302
311,baruun-urt,46.68,113.28,22.69,83,83,12.95,MN,1603226303
312,alugan,12.22,125.48,79.45,85,100,8.16,PH,1603226303
313,kushima,31.46,131.23,63.66,80,18,8.12,JP,1603226303
314,elban,50.1,136.51,33.62,88,80,3.31,RU,1603226303
315,bahia de caraquez,-0.6,-80.42,84.2,58,20,13.87,EC,1603226303
316,najran,17.49,44.13,71.6,33,0,4.7,SA,1603226304
317,eugene,44.05,-123.09,61.57,59,75,4.7,US,1603226052
318,ximei,24.96,118.38,73.4,64,40,4.47,CN,1603226304
319,mocuba,-16.84,36.99,79.45,58,80,6.17,MZ,1603226304
320,nikolskoye,59.7,30.79,32.58,86,40,2.24,RU,1603226304
321,gravdal,68.12,13.5,35.6,74,75,8.05,NO,1603226304
322,santa cruz,-17.8,-63.17,92.08,46,40,17.22,BO,1603226222
323,longyearbyen,78.22,15.64,23.0,73,8,1.12,SJ,1603226119
324,matola,-25.96,32.46,73.78,73,75,16.11,MZ,1603226305
325,naberera,-4.2,36.93,64.81,72,5,10.49,TZ,1603226305
326,luderitz,-26.65,15.16,66.6,41,0,26.62,NA,1603226306
327,lagos de moreno,21.35,-101.92,80.6,14,20,9.17,MX,1603226306
328,sheopur,25.67,76.7,75.67,22,0,5.35,IN,1603226306
329,luena,-11.78,19.92,67.23,41,0,4.52,AO,1603226306
330,sao miguel do araguaia,-13.28,-50.16,86.05,44,99,0.54,BR,1603226214
331,lata,40.16,-8.33,61.02,94,100,1.01,PT,1603226034
332,belmonte,-15.86,-38.88,73.4,88,90,4.7,BR,1603226307
333,woodstock,43.13,-80.75,52.48,62,75,4.7,CA,1603226246
334,villa del rosario,7.83,-72.47,86.0,58,40,13.87,CO,1603226307
335,ostrovnoy,68.05,39.51,37.85,78,100,15.55,RU,1603226218
336,sambava,-14.27,50.17,75.34,81,100,14.27,MG,1603226308
337,mastic beach,40.77,-72.85,66.52,82,90,3.56,US,1603226147
338,karaton,-6.34,106.1,77.49,88,20,9.17,ID,1603226308
339,tokonou,9.65,-9.78,71.83,90,79,1.63,GN,1603226308
340,koubia,11.58,-11.9,71.04,76,18,2.26,GN,1603226308
341,khani,41.96,42.96,59.0,87,75,2.24,GE,1603226309
342,jieshi,22.81,115.83,68.11,79,82,14.18,CN,1603226309
343,los llanos de aridane,28.66,-17.92,68.36,73,20,12.75,ES,1603226309
344,bandarbeyla,9.49,50.81,78.96,72,0,5.91,SO,1603226309
345,ha tinh,18.33,105.9,67.08,89,100,12.41,VN,1603226310
346,masindi,1.67,31.71,65.32,96,96,2.77,UG,1603226310
347,wanlaweyn,2.62,44.89,78.42,79,7,12.12,SO,1603226310
348,begunitsy,59.59,29.32,34.32,86,40,2.24,RU,1603226310
349,salo,45.61,10.53,56.16,93,73,4.7,IT,1603226310
350,sinjar,36.32,41.88,71.2,34,0,10.31,IQ,1603226310
351,okakarara,-20.58,17.43,72.68,20,2,13.67,NA,1603226311
352,tarancon,40.01,-3.01,66.74,62,100,10.0,ES,1603226311
353,woippy,49.15,6.15,57.4,71,100,7.96,FR,1603226311
354,san patricio,28.02,-97.52,85.93,55,1,12.75,US,1603226311
355,tuatapere,-46.13,167.68,48.99,79,16,4.0,NZ,1603226312
356,soubre,5.79,-6.61,73.06,97,46,3.76,CI,1603226312
357,lompoc,34.64,-120.46,61.45,77,40,8.05,US,1603226312
358,riyadh,24.69,46.72,69.8,21,0,5.82,SA,1603226226
359,culaman,5.96,125.66,80.69,66,98,2.64,PH,1603226312
360,irbil,36.19,44.01,69.8,22,0,1.36,IQ,1603226283
361,gloversville,43.05,-74.34,56.1,100,90,6.93,US,1603226313
362,killybegs,54.63,-8.45,54.0,97,95,1.99,IE,1603226313
363,kavaratti,10.57,72.64,81.21,75,100,10.2,IN,1603226313
364,shingu,33.73,135.98,59.22,76,36,8.16,JP,1603226313
365,kozhanka,49.98,29.74,35.6,100,35,2.24,UA,1603226313
366,coari,-4.08,-63.14,90.75,55,68,2.93,BR,1603226314
367,kavieng,-2.57,150.8,81.25,81,96,12.06,PG,1603226314
368,altay,47.87,88.12,36.28,68,3,3.74,CN,1603226314
369,jos,9.92,8.9,69.8,64,38,4.7,NG,1603226314
370,sakakah,29.97,40.21,73.4,12,0,6.93,SA,1603226315
371,burlington,39.88,-74.64,74.16,57,20,4.7,US,1603226315
372,bainbridge,47.63,-122.52,56.53,62,75,3.22,US,1603226315
373,mandalgarh,25.2,75.1,77.31,29,53,4.36,IN,1603226315
374,aksarka,66.56,67.8,21.36,98,100,4.88,RU,1603226315
375,ginir,7.13,40.7,57.36,71,1,4.63,ET,1603226316
376,mardin,37.31,40.74,65.26,42,0,5.55,TR,1603226316
377,myskhako,44.67,37.74,44.6,81,0,2.24,RU,1603226316
378,milkovo,54.72,158.62,29.53,91,19,4.45,RU,1603226316
379,san vicente,-26.62,-54.13,72.82,74,74,3.74,AR,1603226316
380,aswan,24.09,32.91,79.66,25,0,3.87,EG,1603226317
381,celestun,20.87,-90.4,83.26,74,3,14.41,MX,1603226152
382,planaltina,-15.45,-47.61,75.87,69,75,6.93,BR,1603226317
383,dwarka,22.24,68.97,84.04,77,0,10.94,IN,1603226317
384,kushmurun,52.45,64.63,50.99,52,97,5.66,KZ,1603226317
385,qui nhon,13.77,109.23,78.01,88,100,13.29,VN,1603226128
386,vire,48.92,-0.83,60.8,82,90,14.99,FR,1603226318
387,severnoye,56.35,78.36,44.46,86,100,11.27,RU,1603226318
388,jibuti,11.5,42.5,84.2,54,1,7.34,DJ,1603226318
389,morgan city,29.7,-91.21,85.14,62,20,9.17,US,1603226319
390,nybro,56.74,15.91,50.25,81,100,17.22,SE,1603226319
391,richards bay,-28.78,32.04,68.47,72,99,15.17,ZA,1603226220
392,oxford,51.75,-1.26,57.69,87,75,8.05,GB,1603226204
393,ust-ilimsk,58.0,102.66,26.19,98,89,4.88,RU,1603226319
394,aklavik,68.22,-135.01,23.0,85,90,19.46,CA,1603226320
395,necochea,-38.55,-58.74,55.0,70,80,8.99,AR,1603226320
396,flinders,-34.58,150.86,57.0,91,8,4.0,AU,1603226320
397,hofn,64.25,-15.21,36.45,76,0,7.76,IS,1603226320
398,zhigansk,66.77,123.37,15.03,96,100,4.65,RU,1603226320
399,sibu,2.3,111.82,75.07,94,40,4.7,MY,1603226261
400,pangoa,-12.12,-73.0,80.51,65,98,2.8,PE,1603226321
401,bubaque,11.28,-15.83,82.56,80,5,13.98,GW,1603226321
402,yinchuan,38.47,106.27,44.06,43,0,4.88,CN,1603226321
403,macultepec,18.17,-92.83,87.8,62,75,9.64,MX,1603226321
404,kismayo,-0.36,42.55,79.27,80,0,13.53,SO,1603226322
405,bonavista,48.65,-53.11,55.99,86,100,8.01,CA,1603226322
406,bac giang,21.27,106.2,71.6,60,100,4.7,VN,1603226322
407,araguaina,-7.19,-48.21,91.51,32,94,5.64,BR,1603226322
408,sechura,-5.56,-80.82,74.14,57,17,16.67,PE,1603226322
409,komyshuvakha,47.72,35.53,42.8,81,88,5.01,UA,1603226323
410,zundert,51.47,4.64,58.01,87,100,5.01,NL,1603226323
411,la reforma,25.08,-108.05,94.33,69,0,8.01,MX,1603226323
412,sao paulo de olivenca,-3.38,-68.87,88.45,58,77,3.22,BR,1603226323
413,sur,22.57,59.53,72.99,63,0,5.32,OM,1603226324
414,tautira,-17.73,-149.15,84.11,66,20,17.22,PF,1603226324
415,cairns,-16.92,145.77,69.76,83,72,1.12,AU,1603226205
416,bam,29.11,58.36,63.28,18,0,11.14,IR,1603226324
417,selizharovo,56.85,33.45,30.81,98,65,5.44,RU,1603226324
418,constitucion,-35.33,-72.42,59.29,61,0,18.86,CL,1603226325
419,yar-sale,66.83,70.83,24.91,98,100,3.69,RU,1603226325
420,takoradi,4.88,-1.76,76.98,89,100,9.42,GH,1603226325
421,la tijera,19.9,-104.4,74.68,66,21,4.59,MX,1603226325
422,akonolinga,3.77,12.25,68.23,96,72,2.55,CM,1603226325
423,mecca,21.43,39.83,75.85,21,0,3.33,SA,1603226326
424,severo-kurilsk,50.68,156.12,41.22,69,79,24.29,RU,1603226326
425,wadsworth,41.03,-81.73,51.58,96,100,1.99,US,1603226126
426,union,40.63,-74.27,70.47,77,40,4.7,US,1603226326
427,nanortalik,60.14,-45.24,37.02,87,98,6.62,GL,1603226326
428,manggar,-2.88,108.27,79.88,81,81,1.81,ID,1603226327
429,laela,-8.57,32.05,72.0,48,99,0.74,TZ,1603226327
430,talnakh,69.49,88.4,5.0,92,90,2.24,RU,1603226301
431,mayo,38.89,-76.51,69.46,77,1,8.05,US,1603226327
432,atar,20.52,-13.05,90.0,22,0,7.43,MR,1603226327
433,abalak,58.13,68.59,43.0,91,100,9.13,RU,1603226328
434,maldonado,-34.67,-54.92,54.68,58,75,17.22,UY,1603226328
435,chapais,49.78,-74.85,37.4,69,90,3.36,CA,1603226328
436,hamilton,39.18,-84.53,54.25,87,90,5.82,US,1603226224
437,ambilobe,-13.2,49.05,74.82,76,8,3.69,MG,1603226328
438,rio de janeiro,-22.9,-43.21,81.25,74,20,16.11,BR,1603226329
439,port blair,11.67,92.75,81.0,84,76,14.43,IN,1603226329
440,mana,5.66,-53.78,82.81,71,96,13.82,GF,1603226329
441,nagato,34.38,131.2,62.6,77,40,4.7,JP,1603226329
442,micomeseng,2.15,10.62,69.98,98,100,3.74,GQ,1603226330
443,catalina,32.51,-110.92,91.38,11,0,1.01,US,1603226330
444,doka,13.52,35.77,79.47,35,0,0.16,SD,1603226330
445,tazovskiy,67.47,78.7,20.79,98,100,13.58,RU,1603226331
446,horta,38.53,-28.63,62.6,67,75,5.82,PT,1603226331
447,inuvik,68.35,-133.72,23.0,92,90,16.11,CA,1603226331
448,pacific grove,36.62,-121.92,70.66,72,1,4.7,US,1603226331
449,fort-shevchenko,44.51,50.26,54.81,60,87,5.14,KZ,1603226331
450,bathsheba,13.22,-59.52,87.8,66,20,11.41,BB,1603226332
451,grindavik,63.84,-22.43,35.6,80,75,4.7,IS,1603226332
452,kalabo,-14.97,22.68,75.31,17,0,4.88,ZM,1603226332
453,boca de parita,8.02,-80.45,78.8,94,75,5.82,PA,1603226332
454,magan,39.97,-3.93,69.31,59,100,11.01,ES,1603226332
455,nampa,43.54,-116.56,60.39,44,1,6.93,US,1603226333
456,nyurba,63.28,118.33,16.41,97,80,4.18,RU,1603226333
457,sibolga,1.74,98.78,76.98,81,47,2.86,ID,1603226333
458,ascension,30.22,-90.9,85.98,43,1,8.05,US,1603226333
459,verkhnyaya inta,65.98,60.31,20.8,98,99,2.57,RU,1603226334
460,coihaique,-45.58,-72.07,57.2,41,75,10.29,CL,1603226334
461,yakeshi,49.28,120.73,33.73,95,100,7.23,CN,1603226334
462,broome,42.25,-75.83,52.75,93,90,9.17,US,1603226243
463,mizdah,31.45,12.98,59.02,61,0,11.48,LY,1603226334
464,porto novo,6.5,2.6,80.6,88,40,10.29,BJ,1603226335
465,pulandian,39.4,121.97,63.48,67,20,8.95,CN,1603226335
466,sarangani,5.4,125.46,82.99,75,100,8.25,PH,1603226114
467,hit,33.64,42.83,75.36,29,0,9.46,IQ,1603226335
468,altus,34.64,-99.33,71.6,64,40,9.17,US,1603226335
469,katsina,12.99,7.6,84.87,17,2,5.26,NG,1603226336
470,honiara,-9.43,159.95,75.2,94,40,4.7,SB,1603226311
471,ilhabela,-23.78,-45.36,73.38,82,12,2.21,BR,1603226336
472,yonago,35.43,133.33,51.8,87,20,2.24,JP,1603226336
473,galesong,-5.32,119.37,73.4,94,20,3.36,ID,1603226337
474,cadillac,44.25,-85.4,44.6,60,75,8.05,US,1603226337
475,kaili,-3.46,120.21,69.33,77,92,2.08,ID,1603226337
476,ambatondrazaka,-17.83,48.42,62.56,86,27,4.72,MG,1603226338
477,yumen,40.28,97.2,43.88,48,0,8.63,CN,1603226338
478,sioux lookout,50.1,-91.92,33.8,47,75,5.82,CA,1603226338
479,broska,45.37,28.78,42.8,81,0,3.36,UA,1603226338
480,bozeman,45.68,-111.04,47.21,49,20,6.93,US,1603226339
481,yenagoa,4.92,6.26,77.04,92,78,4.79,NG,1603226339
482,atambua,-9.11,124.89,73.56,81,100,1.99,ID,1603226339
483,braganca,-1.05,-46.77,80.89,71,19,5.66,BR,1603226300
484,saveh,35.02,50.36,58.75,47,0,3.11,IR,1603226339
485,morondava,-20.28,44.28,78.1,59,0,16.6,MG,1603226340
486,kayerkan,69.35,87.76,5.0,92,90,2.24,RU,1603226340
487,pawai,24.27,80.17,74.17,32,5,1.99,IN,1603226340
488,murgab,37.5,61.97,55.4,50,0,5.32,TM,1603226340
489,santa rosa de aguan,15.95,-85.72,82.31,79,25,16.17,HN,1603226341
490,angatuba,-23.49,-48.41,73.9,76,65,2.1,BR,1603226341
491,kedougou,12.56,-12.17,81.61,52,67,3.36,SN,1603226341
492,jining,35.41,116.58,55.18,66,85,7.02,CN,1603226342
493,gualeguay,-33.14,-59.31,53.24,93,100,14.0,AR,1603226342
494,halifax,44.65,-63.57,61.72,88,90,9.17,CA,1603226272
495,narnaund,29.22,76.15,71.53,21,0,3.15,IN,1603226343
496,rantoul,40.31,-88.16,57.45,67,75,12.75,US,1603226343
497,port-cartier,50.03,-66.87,42.94,100,90,8.05,CA,1603226064
498,altamira,-3.2,-52.21,85.35,57,97,1.05,BR,1603226244
499,ures,29.43,-110.4,99.27,11,0,4.0,MX,1603226343
500,vanimo,-2.67,141.3,78.28,84,100,4.47,PG,1603226344
501,jacareacanga,-6.22,-57.75,92.01,45,98,1.34,BR,1603226344
502,tefe,-3.35,-64.71,89.6,66,40,5.82,BR,1603226344
503,kongolo,-5.38,27.0,71.15,92,100,2.42,CD,1603226344
504,ketchikan,55.34,-131.65,45.3,87,75,5.82,US,1603226345
505,ler,8.3,30.14,75.87,77,30,3.94,SS,1603226345
506,solnechnyy,50.72,136.63,34.93,83,76,7.61,RU,1603226345
507,dangara,29.68,75.89,69.82,22,0,3.83,IN,1603226345
508,port lincoln,-34.73,135.87,57.45,85,12,11.45,AU,1603226046
509,taber,49.82,-112.15,32.0,78,20,9.17,CA,1603226346
510,seoul,37.57,126.98,52.74,71,90,2.62,KR,1603226247
511,itoman,26.12,127.67,79.29,74,75,16.11,JP,1603226346
512,nago,26.59,127.98,78.4,78,90,14.99,JP,1603226112
513,shelburne,44.08,-80.2,46.17,75,90,4.7,CA,1603226347
514,carnot,4.94,15.87,72.27,80,60,0.83,CF,1603226347
515,high rock,26.62,-78.28,82.4,78,75,11.41,BS,1603226347
516,talitsy,56.53,42.33,32.2,97,36,8.52,RU,1603226347
517,broken hill,-31.95,141.43,62.6,39,30,3.36,AU,1603226347
518,avera,33.19,-82.53,77.25,57,1,8.05,US,1603226348
519,kamaishi,39.27,141.88,52.27,70,3,4.99,JP,1603226316
520,goderich,43.75,-81.72,50.72,70,100,7.07,CA,1603226348
521,sharon,41.23,-80.49,52.18,87,90,10.29,US,1603226348
522,nha trang,12.25,109.18,80.6,83,40,5.82,VN,1603226349
523,yining,29.04,114.56,56.95,92,100,1.99,CN,1603226349
524,kendari,-3.94,122.5,73.63,86,100,2.15,ID,1603226349
525,skibbereen,51.55,-9.27,50.0,93,40,10.29,IE,1603226349
526,saint albans,51.75,-0.33,58.06,93,90,9.17,GB,1603226242
527,yeppoon,-23.13,150.73,73.4,73,90,6.93,AU,1603226350
528,tibati,6.47,12.63,67.89,71,2,2.26,CM,1603226350
529,nelson bay,-32.72,152.15,62.6,82,0,6.93,AU,1603226350
530,kotido,2.98,34.13,74.64,56,74,10.89,UG,1603226350
531,hirara,24.8,125.28,80.53,81,100,24.09,JP,1603226351
532,les cayes,18.2,-73.75,82.45,74,99,6.67,HT,1603226318
533,akdepe,42.06,59.38,51.75,36,0,6.93,TM,1603226351
534,port pirie,-33.18,138.02,55.4,93,73,5.82,AU,1603226351
535,klaksvik,62.23,-6.59,41.0,75,25,9.17,FO,1603226351
536,breytovo,58.3,37.86,32.76,92,46,13.6,RU,1603226352
537,padang,-0.95,100.35,78.73,73,81,4.61,ID,1603226352
538,elat,29.56,34.95,84.2,58,0,6.93,IL,1603226352
539,diapaga,12.07,1.79,85.19,33,12,3.13,BF,1603226352
540,gilbues,-9.83,-45.34,89.42,23,100,5.37,BR,1603226353
541,oksbol,55.63,8.29,51.91,93,100,10.29,DK,1603226353
542,hualmay,-11.1,-77.61,67.55,69,10,8.9,PE,1603226353
543,mitzic,0.78,11.55,67.87,98,90,2.95,GA,1603226354
544,carutapera,-1.2,-46.02,81.28,72,19,8.99,BR,1603226354
545,komsomolskiy,40.43,71.72,57.2,50,0,6.93,UZ,1603226354
546,manali,13.17,80.27,78.8,94,40,2.24,IN,1603226355
547,chimore,-16.98,-65.13,89.42,50,99,3.24,BO,1603226355
548,vila franca do campo,37.72,-25.43,62.6,63,20,14.99,PT,1603226355
